[
  {
    "__name__": "golf-marseille-salette",
    "name": "Golf de Marseille La Salette",
    "address": "Avenue de la Mazargues",
    "city": "Marseille",
    "region": "Provence-Alpes-Côte d'Azur",
    "country": "France",
    "coordinates": {
      "latitude": 43.2500,
      "longitude": 5.3900
    },
    "holes": 18,
    "description": "Parcours municipal de Marseille",
    "website": "https://www.golf-marseille.fr",
    "phone": "",
    "rating": 4.0,
    "source": "Manuel"
  },
  {
    "__name__": "golf-aix-provence",
    "name": "Golf d'Aix-en-Provence",
    "address": "Domaine de Riquetti",
    "city": "Aix-en-Provence",
    "region": "Provence-Alpes-Côte d'Azur",
    "country": "France",
    "coordinates": {
      "latitude": 43.5300,
      "longitude": 5.4500
    },
    "holes": 18,
    "description": "Parcours technique près du centre-ville d'Aix",
    "website": "https://www.golfaixenprovence.com",
    "phone": "",
    "rating": 4.2,
    "source": "Manuel"
  },
  {
    "__name__": "golf-marseille-garden",
    "name": "Marseille La Salette Golf & Garden",
    "address": "Impasse des Vaudrans",
    "city": "Marseille",
    "region": "Provence-Alpes-Côte d'Azur",
    "country": "France",
    "coordinates": {
      "latitude": 43.2600,
      "longitude": 5.4000
    },
    "holes": 18,
    "description": "Golf urbain de Marseille",
    "website": "",
    "phone": "",
    "rating": 3.9,
    "source": "Manuel"
  },
  {
    "__name__": "golf-fuveau",
    "name": "Golf de Fuveau",
    "address": "Route de Saint-Antonin",
    "city": "Fuveau",
    "region": "Provence-Alpes-Côte d'Azur",
    "country": "France",
    "coordinates": {
      "latitude": 43.4500,
      "longitude": 5.5600
    },
    "holes": 18,
    "description": "Parcours vallonné près d'Aix-en-Provence",
    "website": "https://www.golffuveau.com",
    "phone": "",
    "rating": 4.1,
    "source": "Manuel"
  },
  {
    "__name__": "golf-marseille-la-rose",
    "name": "Golf de Marseille La Rose",
    "address": "Avenue de la Rose",
    "city": "Marseille",
    "region": "Provence-Alpes-Côte d'Azur",
    "country": "France",
    "coordinates": {
      "latitude": 43.3300,
      "longitude": 5.4200
    },
    "holes": 18,
    "description": "Parcours nord de Marseille",
    "website": "",
    "phone": "",
    "rating": 3.8,
    "source": "Manuel"
  },
  {
    "__name__": "golf-paris-country-club",
    "name": "Paris Country Club",
    "address": "3 Rue de la Croix",
    "city": "Rueil-Malmaison",
    "region": "Île-de-France",
    "country": "France",
    "coordinates": {
      "latitude": 48.8700,
      "longitude": 2.1900
    },
    "holes": 18,
    "description": "Club prestigieux de l'ouest parisien",
    "website": "https://www.pariscountryclub.fr",
    "phone": "",
    "rating": 4.6,
    "source": "Manuel"
  },
  {
    "__name__": "golf-paris-international",
    "name": "Golf Paris International",
    "address": "Route de la Ferme",
    "city": "Baillet-en-France",
    "region": "Île-de-France",
    "country": "France",
    "coordinates": {
      "latitude": 49.0600,
      "longitude": 2.3100
    },
    "holes": 18,
    "description": "Parcours nord de Paris",
    "website": "https://www.golf-parisinternational.com",
    "phone": "",
    "rating": 4.2,
    "source": "Manuel"
  },
  {
    "__name__": "golf-racing-club-france",
    "name": "Racing Club de France",
    "address": "Route de la Ferme",
    "city": "La Boulie",
    "region": "Île-de-France",
    "country": "France",
    "coordinates": {
      "latitude": 48.8400,
      "longitude": 2.1700
    },
    "holes": 18,
    "description": "Club historique parisien",
    "website": "https://www.racing-club-de-france.fr",
    "phone": "",
    "rating": 4.5,
    "source": "Manuel"
  },
  {
    "__name__": "golf-isabella",
    "name": "Golf d'Isabella",
    "address": "Route de Gif",
    "city": "Bievres",
    "region": "Île-de-France",
    "country": "France",
    "coordinates": {
      "latitude": 48.7500,
      "longitude": 2.2100
    },
    "holes": 18,
    "description": "Parcours sud de Paris",
    "website": "https://www.golfisabella.com",
    "phone": "",
    "rating": 4.3,
    "source": "Manuel"
  },
  {
    "__name__": "golf-marivaux",
    "name": "Golf de Marivaux",
    "address": "Château de Marivaux",
    "city": "Frépillon",
    "region": "Île-de-France",
    "country": "France",
    "coordinates": {
      "latitude": 49.0500,
      "longitude": 2.2000
    },
    "holes": 18,
    "description": "Parcours de château près de Paris",
    "website": "https://www.golfmarivaux.com",
    "phone": "",
    "rating": 4.1,
    "source": "Manuel"
  },
  {
    "__name__": "golf-feucherolles",
    "name": "Golf de Feucherolles",
    "address": "Rue de la Mare Pavée",
    "city": "Feucherolles",
    "region": "Île-de-France",
    "country": "France",
    "coordinates": {
      "latitude": 48.8800,
      "longitude": 1.9700
    },
    "holes": 18,
    "description": "Parcours dans les Yvelines",
    "website": "https://www.golffeucherolles.com",
    "phone": "",
    "rating": 4.0,
    "source": "Manuel"
  },
  {
    "__name__": "golf-paris-est",
    "name": "Golf de Paris Est",
    "address": "Route de Marne",
    "city": "Cély",
    "region": "Île-de-France",
    "country": "France",
    "coordinates": {
      "latitude": 48.4800,
      "longitude": 2.5400
    },
    "holes": 18,
    "description": "Parcours est de Paris",
    "website": "https://www.golfparisest.com",
    "phone": "",
    "rating": 4.1,
    "source": "Manuel"
  },
  {
    "__name__": "golf-vaucouleurs",
    "name": "Golf de Vaucouleurs",
    "address": "Domaine de Vaucouleurs",
    "city": "Civry-la-Forêt",
    "region": "Île-de-France",
    "country": "France",
    "coordinates": {
      "latitude": 48.9400,
      "longitude": 1.5700
    },
    "holes": 18,
    "description": "Parcours en forêt normande",
    "website": "https://www.golf-vaucouleurs.com",
    "phone": "",
    "rating": 4.2,
    "source": "Manuel"
  },
  {
    "__name__": "golf-haras-jardy",
    "name": "Golf du Haras de Jardy",
    "address": "Boulevard de Jardy",
    "city": "Marnes-la-Coquette",
    "region": "Île-de-France",
    "country": "France",
    "coordinates": {
      "latitude": 48.8400,
      "longitude": 2.1600
    },
    "holes": 18,
    "description": "Parcours prestigieux de l'ouest parisien",
    "website": "https://www.golf-jardy.com",
    "phone": "",
    "rating": 4.4,
    "source": "Manuel"
  },
  {
    "__name__": "golf-courson",
    "name": "Golf de Courson",
    "address": "Château de Courson",
    "city": "Courson-Monteloup",
    "region": "Île-de-France",
    "country": "France",
    "coordinates": {
      "latitude": 48.6000,
      "longitude": 2.1300
    },
    "holes": 18,
    "description": "Parcours de château historique",
    "website": "https://www.golfcourson.com",
    "phone": "",
    "rating": 4.3,
    "source": "Manuel"
  },
  {
    "__name__": "golf-villarceaux",
    "name": "Golf de Villarceaux",
    "address": "Domaine de Villarceaux",
    "city": "Chaussy",
    "region": "Île-de-France",
    "country": "France",
    "coordinates": {
      "latitude": 49.1300,
      "longitude": 1.7100
    },
    "holes": 18,
    "description": "Parcours dans un domaine Renaissance",
    "website": "https://www.golf-villarceaux.com",
    "phone": "",
    "rating": 4.4,
    "source": "Manuel"
  },
  {
    "__name__": "golf-lyon-villette",
    "name": "Golf de Villette d'Anthon",
    "address": "Chemin de Grisieu",
    "city": "Villette-d'Anthon",
    "region": "Auvergne-Rhône-Alpes",
    "country": "France",
    "coordinates": {
      "latitude": 45.7900,
      "longitude": 5.1100
    },
    "holes": 18,
    "description": "Parcours près de l'aéroport de Lyon",
    "website": "https://www.golfvillette.com",
    "phone": "",
    "rating": 4.2,
    "source": "Manuel"
  },
  {
    "__name__": "golf-beaujolais",
    "name": "Golf du Beaujolais",
    "address": "Route de Lyon",
    "city": "Lucenay",
    "region": "Auvergne-Rhône-Alpes",
    "country": "France",
    "coordinates": {
      "latitude": 45.9200,
      "longitude": 4.7000
    },
    "holes": 18,
    "description": "Parcours dans le vignoble du Beaujolais",
    "website": "https://www.golf-beaujolais.com",
    "phone": "",
    "rating": 4.3,
    "source": "Manuel"
  },
  {
    "__name__": "golf-lyon-verger-grand",
    "name": "Golf Club de Lyon",
    "address": "Chemin du Golf",
    "city": "Villette-de-Vienne",
    "region": "Auvergne-Rhône-Alpes",
    "country": "France",
    "coordinates": {
      "latitude": 45.5700,
      "longitude": 4.9000
    },
    "holes": 18,
    "description": "Parcours sud de Lyon",
    "website": "https://www.golfclubdelyon.com",
    "phone": "",
    "rating": 4.1,
    "source": "Manuel"
  },
  {
    "__name__": "golf-bormes-mimosas",
    "name": "Golf de la Favière",
    "address": "Domaine du Mirage",
    "city": "Bormes-les-Mimosas",
    "region": "Provence-Alpes-Côte d'Azur",
    "country": "France",
    "coordinates": {
      "latitude": 43.1200,
      "longitude": 6.3500
    },
    "holes": 18,
    "description": "Parcours en bord de mer près de Bormes",
    "website": "https://www.golflafaviere.com",
    "phone": "",
    "rating": 4.3,
    "source": "Manuel"
  },
  {
    "__name__": "golf-dolce-frejus",
    "name": "Dolce Fréjus Golf",
    "address": "Route de Bagnols",
    "city": "Puget-sur-Argens",
    "region": "Provence-Alpes-Côte d'Azur",
    "country": "France",
    "coordinates": {
      "latitude": 43.4600,
      "longitude": 6.6800
    },
    "holes": 18,
    "description": "Resort golf près de Fréjus",
    "website": "https://www.dolcefrejus.com",
    "phone": "",
    "rating": 4.4,
    "source": "Manuel"
  },
  {
    "__name__": "golf-vidauban",
    "name": "Golf de Vidauban",
    "address": "Route de Lorgues",
    "city": "Vidauban",
    "region": "Provence-Alpes-Côte d'Azur",
    "country": "France",
    "coordinates": {
      "latitude": 43.4200,
      "longitude": 6.4300
    },
    "holes": 18,
    "description": "Parcours dans le Var intérieur",
    "website": "https://www.golfvidauban.com",
    "phone": "",
    "rating": 4.0,
    "source": "Manuel"
  },
  {
    "__name__": "golf-valbonne-sophia",
    "name": "Golf de Sophia-Antipolis",
    "address": "Route de Valbonne",
    "city": "Valbonne",
    "region": "Provence-Alpes-Côte d'Azur",
    "country": "France",
    "coordinates": {
      "latitude": 43.6200,
      "longitude": 7.0400
    },
    "holes": 18,
    "description": "Parcours technopole Sophia-Antipolis",
    "website": "https://www.golfsophia.com",
    "phone": "",
    "rating": 4.2,
    "source": "Manuel"
  },
  {
    "__name__": "golf-royal-mougins-2",
    "name": "Golf de la Bastide de Mougins",
    "address": "Chemin de la Bastide",
    "city": "Mougins",
    "region": "Provence-Alpes-Côte d'Azur",
    "country": "France",
    "coordinates": {
      "latitude": 43.6000,
      "longitude": 7.0100
    },
    "holes": 18,
    "description": "Second parcours de Mougins",
    "website": "",
    "phone": "",
    "rating": 4.1,
    "source": "Manuel"
  },
  {
    "__name__": "golf-claux-amic",
    "name": "Golf de Claux-Amic",
    "address": "Route de Nice",
    "city": "Grasse",
    "region": "Provence-Alpes-Côte d'Azur",
    "country": "France",
    "coordinates": {
      "latitude": 43.6400,
      "longitude": 6.9400
    },
    "holes": 18,
    "description": "Parcours de Grasse",
    "website": "https://www.golfclaux.com",
    "phone": "",
    "rating": 4.0,
    "source": "Manuel"
  },
  {
    "__name__": "golf-country-club-cannes",
    "name": "Country Club de Cannes",
    "address": "Avenue du Riou",
    "city": "Cannes",
    "region": "Provence-Alpes-Côte d'Azur",
    "country": "France",
    "coordinates": {
      "latitude": 43.5500,
      "longitude": 6.9800
    },
    "holes": 18,
    "description": "Golf urbain de Cannes",
    "website": "https://www.countryclub-cannes.com",
    "phone": "",
    "rating": 4.3,
    "source": "Manuel"
  },
  {
    "__name__": "golf-saint-endreol",
    "name": "Golf de Saint-Endréol",
    "address": "Quartier Saint-Endréol",
    "city": "La Motte",
    "region": "Provence-Alpes-Côte d'Azur",
    "country": "France",
    "coordinates": {
      "latitude": 43.4900,
      "longitude": 6.5400
    },
    "holes": 18,
    "description": "Golf resort dans le Var",
    "website": "https://www.golfsaintendreol.com",
    "phone": "",
    "rating": 4.4,
    "source": "Manuel"
  },
  {
    "__name__": "golf-digne",
    "name": "Golf de Digne-les-Bains",
    "address": "Quartier Saint-Pierre",
    "city": "Digne-les-Bains",
    "region": "Provence-Alpes-Côte d'Azur",
    "country": "France",
    "coordinates": {
      "latitude": 44.0900,
      "longitude": 6.2400
    },
    "holes": 18,
    "description": "Parcours de montagne en Provence",
    "website": "https://www.golfdigne.com",
    "phone": "",
    "rating": 4.1,
    "source": "Manuel"
  },
  {
    "__name__": "golf-serre-chevalier",
    "name": "Golf de Serre-Chevalier",
    "address": "Route du Golf",
    "city": "Saint-Chaffrey",
    "region": "Provence-Alpes-Côte d'Azur",
    "country": "France",
    "coordinates": {
      "latitude": 44.9300,
      "longitude": 6.5900
    },
    "holes": 18,
    "description": "Parcours d'altitude dans les Hautes-Alpes",
    "website": "https://www.golf-serrechevalier.com",
    "phone": "",
    "rating": 4.3,
    "source": "Manuel"
  },
  {
    "__name__": "golf-briancon",
    "name": "Golf de Briançon",
    "address": "Route de Gap",
    "city": "Briançon",
    "region": "Provence-Alpes-Côte d'Azur",
    "country": "France",
    "coordinates": {
      "latitude": 44.9000,
      "longitude": 6.6400
    },
    "holes": 18,
    "description": "Golf d'altitude fortifié",
    "website": "",
    "phone": "",
    "rating": 4.0,
    "source": "Manuel"
  },
  {
    "__name__": "golf-valberg",
    "name": "Golf de Valberg",
    "address": "Station de Valberg",
    "city": "Péone",
    "region": "Provence-Alpes-Côte d'Azur",
    "country": "France",
    "coordinates": {
      "latitude": 44.0900,
      "longitude": 6.9300
    },
    "holes": 18,
    "description": "Parcours de montagne à Valberg",
    "website": "https://www.valberg.com",
    "phone": "",
    "rating": 4.2,
    "source": "Manuel"
  },
  {
    "__name__": "golf-cote-azur",
    "name": "Riviera Golf de Barbossi",
    "address": "Avenue des Amazones",
    "city": "Mandelieu-la-Napoule",
    "region": "Provence-Alpes-Côte d'Azur",
    "country": "France",
    "coordinates": {
      "latitude": 43.5200,
      "longitude": 6.9500
    },
    "holes": 18,
    "description": "Second parcours de Mandelieu",
    "website": "https://www.golfriviera.com",
    "phone": "",
    "rating": 4.3,
    "source": "Manuel"
  },
  {
    "__name__": "golf-taulane",
    "name": "Golf de Taulane",
    "address": "Route de Taulane",
    "city": "La Martre",
    "region": "Provence-Alpes-Côte d'Azur",
    "country": "France",
    "coordinates": {
      "latitude": 43.7800,
      "longitude": 6.5100
    },
    "holes": 18,
    "description": "Parcours de montagne exceptionnel",
    "website": "https://www.golftaulane.com",
    "phone": "",
    "rating": 4.6,
    "source": "Manuel"
  },
  {
    "__name__": "golf-apremont",
    "name": "Golf d'Apremont",
    "address": "Domaine d'Apremont",
    "city": "Apremont",
    "region": "Pays de la Loire",
    "country": "France",
    "coordinates": {
      "latitude": 46.7500,
      "longitude": -1.7400
    },
    "holes": 18,
    "description": "Parcours en Vendée",
    "website": "https://www.golf-apremont.com",
    "phone": "",
    "rating": 4.2,
    "source": "Manuel"
  },
  {
    "__name__": "golf-port-bourgenay",
    "name": "Golf de Port-Bourgenay",
    "address": "Route de Port Bourgenay",
    "city": "Talmont-Saint-Hilaire",
    "region": "Pays de la Loire",
    "country": "France",
    "coordinates": {
      "latitude": 46.4700,
      "longitude": -1.6300
    },
    "holes": 18,
    "description": "Parcours côtier en Vendée",
    "website": "https://www.golfportbourgenay.com",
    "phone": "",
    "rating": 4.3,
    "source": "Manuel"
  },
  {
    "__name__": "golf-sables-olonne",
    "name": "Golf des Sables d'Olonne",
    "address": "Route d'Olonne",
    "city": "Olonne-sur-Mer",
    "region": "Pays de la Loire",
    "country": "France",
    "coordinates": {
      "latitude": 46.5300,
      "longitude": -1.7600
    },
    "holes": 18,
    "description": "Parcours près des Sables d'Olonne",
    "website": "https://www.golfsables.com",
    "phone": "",
    "rating": 4.1,
    "source": "Manuel"
  },
  {
    "__name__": "golf-fontenelles",
    "name": "Golf des Fontenelles",
    "address": "Domaine des Fontenelles",
    "city": "La Chaize-le-Vicomte",
    "region": "Pays de la Loire",
    "country": "France",
    "coordinates": {
      "latitude": 46.6700,
      "longitude": -1.2900
    },
    "holes": 18,
    "description": "Parcours près de La Roche-sur-Yon",
    "website": "https://www.golffontenelles.com",
    "phone": "",
    "rating": 4.2,
    "source": "Manuel"
  },
  {
    "__name__": "golf-angers",
    "name": "Golf d'Angers",
    "address": "Route de Cheffes",
    "city": "Avrillé",
    "region": "Pays de la Loire",
    "country": "France",
    "coordinates": {
      "latitude": 47.5100,
      "longitude": -0.5900
    },
    "holes": 18,
    "description": "Parcours près d'Angers",
    "website": "https://www.golfdangers.com",
    "phone": "",
    "rating": 4.1,
    "source": "Manuel"
  },
  {
    "__name__": "golf-le-mans",
    "name": "Golf du Mans",
    "address": "Circuit des 24 Heures",
    "city": "Le Mans",
    "region": "Pays de la Loire",
    "country": "France",
    "coordinates": {
      "latitude": 47.9500,
      "longitude": 0.2200
    },
    "holes": 18,
    "description": "Parcours près du circuit automobile",
    "website": "https://www.golfdumans.com",
    "phone": "",
    "rating": 4.0,
    "source": "Manuel"
  },
  {
    "__name__": "golf-laval",
    "name": "Golf de Laval",
    "address": "Route de Mayenne",
    "city": "Changé",
    "region": "Pays de la Loire",
    "country": "France",
    "coordinates": {
      "latitude": 48.1000,
      "longitude": -0.7700
    },
    "holes": 18,
    "description": "Parcours mayennais",
    "website": "https://www.golflaval.com",
    "phone": "",
    "rating": 4.0,
    "source": "Manuel"
  },
  {
    "__name__": "golf-vannes",
    "name": "Golf de Baden",
    "address": "Kernic",
    "city": "Baden",
    "region": "Bretagne",
    "country": "France",
    "coordinates": {
      "latitude": 47.6200,
      "longitude": -2.9200
    },
    "holes": 18,
    "description": "Parcours du golfe du Morbihan",
    "website": "https://www.golfbaden.com",
    "phone": "",
    "rating": 4.3,
    "source": "Manuel"
  },
  {
    "__name__": "golf-quiberon",
    "name": "Golf de la Côte Sauvage",
    "address": "Rue du Golf",
    "city": "Saint-Pierre-Quiberon",
    "region": "Bretagne",
    "country": "France",
    "coordinates": {
      "latitude": 47.5200,
      "longitude": -3.1300
    },
    "holes": 18,
    "description": "Links en presqu'île de Quiberon",
    "website": "https://www.golfquiberon.com",
    "phone": "",
    "rating": 4.4,
    "source": "Manuel"
  },
  {
    "__name__": "golf-pléneuf-val-andré",
    "name": "Golf de Pléneuf-Val-André",
    "address": "Rue de la Plage",
    "city": "Pléneuf-Val-André",
    "region": "Bretagne",
    "country": "France",
    "coordinates": {
      "latitude": 48.5900,
      "longitude": -2.5500
    },
    "holes": 18,
    "description": "Links en bord de mer des Côtes d'Armor",
    "website": "https://www.golfpleneuvallandre.com",
    "phone": "",
    "rating": 4.5,
    "source": "Manuel"
  },
  {
    "__name__": "golf-saint-brieuc",
    "name": "Golf de Saint-Brieuc",
    "address": "Rue des Landes",
    "city": "Plérin",
    "region": "Bretagne",
    "country": "France",
    "coordinates": {
      "latitude": 48.5300,
      "longitude": -2.7300
    },
    "holes": 18,
    "description": "Parcours des Côtes d'Armor",
    "website": "https://www.golfsaintbrieuc.com",
    "phone": "",
    "rating": 4.1,
    "source": "Manuel"
  },
  {
    "__name__": "golf-brest-iroise",
    "name": "Golf de Brest Iroise",
    "address": "Route de Quimper",
    "city": "Landerneau",
    "region": "Bretagne",
    "country": "France",
    "coordinates": {
      "latitude": 48.4500,
      "longitude": -4.2500
    },
    "holes": 18,
    "description": "Parcours du Finistère",
    "website": "https://www.golfbrestiroise.com",
    "phone": "",
    "rating": 4.0,
    "source": "Manuel"
  },
  {
    "__name__": "golf-quimper",
    "name": "Golf de l'Odet",
    "address": "Route de Bénodet",
    "city": "Clohars-Fouesnant",
    "region": "Bretagne",
    "country": "France",
    "coordinates": {
      "latitude": 47.8900,
      "longitude": -4.0600
    },
    "holes": 18,
    "description": "Parcours près de Quimper",
    "website": "https://www.golfodet.com",
    "phone": "",
    "rating": 4.2,
    "source": "Manuel"
  },
  {
    "__name__": "golf-lorient",
    "name": "Golf de Val Quéven",
    "address": "Kergroix",
    "city": "Quéven",
    "region": "Bretagne",
    "country": "France",
    "coordinates": {
      "latitude": 47.7900,
      "longitude": -3.4100
    },
    "holes": 18,
    "description": "Parcours du Morbihan",
    "website": "https://www.golfvalqueven.com",
    "phone": "",
    "rating": 4.1,
    "source": "Manuel"
  },
  {
    "__name__": "golf-sables-d-or",
    "name": "Golf des Sables-d'Or-les-Pins",
    "address": "Route de Fréhel",
    "city": "Fréhel",
    "region": "Bretagne",
    "country": "France",
    "coordinates": {
      "latitude": 48.6600,
      "longitude": -2.3800
    },
    "holes": 18,
    "description": "Links historique breton",
    "website": "https://www.golfsablesdor.com",
    "phone": "",
    "rating": 4.4,
    "source": "Manuel"
  },
  {
    "__name__": "golf-cote-d-amour",
    "name": "Golf de La Bretesche",
    "address": "Domaine de la Bretesche",
    "city": "Missillac",
    "region": "Pays de la Loire",
    "country": "France",
    "coordinates": {
      "latitude": 47.4800,
      "longitude": -2.1600
    },
    "holes": 18,
    "description": "Parcours de château en Loire-Atlantique",
    "website": "https://www.labretesche.com",
    "phone": "",
    "rating": 4.5,
    "source": "Manuel"
  }
]
